[
  {
    "name": "River",
    "coordinates": {
      "lat": -34.545236,
      "lng": -58.449746
    }
  },
  {
    "name": "Boca",
    "coordinates": {
      "lat": -34.635607,
      "lng": -58.364751
    }
  },
  {
    "name": "Independiente",
    "coordinates": {
      "lat": -34.659071,
      "lng": -58.367513
    }
  },
  {
    "name": "San Lorenzo",
    "coordinates": {
      "lat": -34.652166,
      "lng": -58.437009
    }
  },
  {
    "name": "Racing",
    "coordinates": {
      "lat": -34.663447,
      "lng": -58.362874
    }
  }
]
